[
  {"name": "Paris", "lat": 48.856614, "lng": 2.3522219},
  {"name": "Marseille", "lat": 43.296482, "lng": 5.36978},
  {"name": "Lyon", "lat": 45.764043, "lng": 4.835659},
  {"name": "Toulouse", "lat": 43.604652, "lng": 1.444209},
  {"name": "Nice", "lat": 43.710173, "lng": 7.261953},
  {"name": "Nantes", "lat": 47.218371, "lng": -1.553621},
  {"name": "Strasbourg", "lat": 48.573405, "lng": 7.752111},
  {"name": "Montpellier", "lat": 43.61194, "lng": 3.87722},
  {"name": "Bordeaux", "lat": 44.837789, "lng": -0.57918},
  {"name": "Lille", "lat": 50.62925, "lng": 3.057256},
  {"name": "Rennes", "lat": 48.117266, "lng": -1.677792},
  {"name": "Reims", "lat": 49.258329, "lng": 4.031696},
  {"name": "Saint-Étienne", "lat": 45.439695, "lng": 4.387178},
  {"name": "Toulon", "lat": 43.124228, "lng": 5.928},
  {"name": "Le Havre", "lat": 49.49437, "lng": 0.107929},
  {"name": "Grenoble", "lat": 45.188529, "lng": 5.724524},
  {"name": "Dijon", "lat": 47.322047, "lng": 5.04148},
  {"name": "Angers", "lat": 47.478419, "lng": -0.563166},
  {"name": "Nîmes", "lat": 43.836699, "lng": 4.360054},
  {"name": "Villeurbanne", "lat": 45.771944, "lng": 4.890169},
  {"name": "Clermont-Ferrand", "lat": 45.777222, "lng": 3.087025},
  {"name": "Le Mans", "lat": 48.006111, "lng": 0.199556},
  {"name": "Aix-en-Provence", "lat": 43.529742, "lng": 5.447427},
  {"name": "Brest", "lat": 48.390394, "lng": -4.486076},
  {"name": "Tours", "lat": 47.394144, "lng": 0.68484},
  {"name": "Amiens", "lat": 49.894067, "lng": 2.295753},
  {"name": "Limoges", "lat": 45.832619, "lng": 1.261105},
  {"name": "Annecy", "lat": 45.899247, "lng": 6.129384},
  {"name": "Perpignan", "lat": 42.688659, "lng": 2.894833},
  {"name": "Metz", "lat": 49.119308, "lng": 6.175715},
  {"name": "Besançon", "lat": 47.237829, "lng": 6.024053},
  {"name": "Orléans", "lat": 47.90303, "lng": 1.909252},
  {"name": "Mulhouse", "lat": 47.750839, "lng": 7.335888},
  {"name": "Rouen", "lat": 49.443231, "lng": 1.099971},
  {"name": "Caen", "lat": 49.182863, "lng": -0.370679},
  {"name": "Nancy", "lat": 48.692054, "lng": 6.184417},
  {"name": "Saint-Denis", "lat": 48.936181, "lng": 2.357443},
  {"name": "Argenteuil", "lat": 48.947178, "lng": 2.249414},
  {"name": "Montreuil", "lat": 48.863813, "lng": 2.448907}
]

